{"type":"FeatureCollection","features":[{"type":"Feature","properties":{"name":"Дача Салтыковой","address":"Россия, г. Санкт-Петербург, ул. Академика Крылова, 4","film":"«Приключения Шерлока Холмса и доктора Ватсона»","film_standin":"Дом на Брикстон-роуд","marker-color":"#679d00","marker-size":"medium"},"geometry":{"coordinates":[30.300839,59.985412],"type":"Point"}},{"type":"Feature","properties":{"name":"Улица Яуниела, 22","address":"Латвия, г. Рига, ул. Яуниела, 22","film":"«Приключения Шерлока Холмса и доктора Ватсона»","film_standin":"ул. Бейкер-Стрит, д. 221-b","marker-color":"#679d00","marker-size":"medium"},"geometry":{"coordinates":[24.105239662485673,56.948553386770726],"type":"Point"}},{"type":"Feature","properties":{"name":"Костел Марии Снежной","address":"Украина, г. Львов, ул. Снежная, 2","film":"«Д’Артаньян и три мушкетера»","film_standin":"Дом господина Бонасье","marker-color":"#ae00ff","marker-size":"medium"},"geometry":{"coordinates":[24.0303,49.84485],"type":"Point"}},{"type":"Feature","properties":{"name":"Дворец Потоцких","address":"Украина, г. Львов, ул. Коперника, 15","film":"«Д’Артаньян и три мушкетера»","film_standin":"Дом господина де Тревиля","marker-color":"#ae00ff","marker-size":"medium"},"geometry":{"coordinates":[24.026868361613225,49.837947199848486],"type":"Point"}},{"type":"Feature","properties":{"name":"Дом учёных","address":"Украина, г. Львов, ул. Листопадового Чина, 6","film":"«Д’Артаньян и три мушкетера»","film_standin":"Дворец кардинала","marker-color":"#ae00ff","marker-size":"medium"},"geometry":{"coordinates":[24.021402457008776,49.841155743579804],"type":"Point"}},{"type":"Feature","properties":{"name":"Костёл и монастырь бернардинцев","address":"Украина, г. Львов, Соборная площадь, 1","film":"«Д’Артаньян и три мушкетера»","film_standin":"Менг","marker-color":"#ae00ff","marker-size":"medium"},"geometry":{"coordinates":[24.033275464872247,49.83950318471909],"type":"Point"}},{"type":"Feature","properties":{"name":"Олесский замок","address":"Украина, Львовская область, пос. Олеско","film":"«Д’Артаньян и три мушкетера»","film_standin":"Дворец Бэкингема","marker-color":"#ae00ff","marker-size":"medium"},"geometry":{"coordinates":[24.900892515534366,49.9683728938023],"type":"Point"}},{"type":"Feature","properties":{"name":"Подгорецкий замок","address":"Украина, Львовская область, с. Подгорцы","film":"«Д’Артаньян и три мушкетера»","film_standin":"Парижская ратуша","marker-color":"#ae00ff","marker-size":"medium"},"geometry":{"coordinates":[24.983613595814802,49.9433288389192],"type":"Point"}},{"type":"Feature","properties":{"name":"Свиржский замок","address":"Украина, Львовская область, с. Свирж","film":"«Д’Артаньян и три мушкетера»","film_standin":"Родовой замок Д’Артаньянов, монастырь кармелиток в Бетюне, дом палача, бастион Сен-Жерве","marker-color":"#ae00ff","marker-size":"medium"},"geometry":{"coordinates":[24.432615493246033,49.65246819114438],"type":"Point"}},{"type":"Feature","properties":{"name":"Улица Кичик Гала","address":"Азербайджан, г. Баку, ул. Кичик Гала, д.8","film":"«Бриллиантовая рука»","film_standin":"Стамбул, аптека «Chikanuk»","marker-color":"#ff0000","marker-size":"medium"},"geometry":{"coordinates":[49.83331556389254,40.36419220969236],"type":"Point"}},{"type":"Feature","properties":{"name":"Тракайский замок","address":"Литва, г. Тракай, оз. Гальве","film":"«Приключения Электроника»","film_standin":"Картинная галерея","marker-color":"#2f8340","marker-size":"medium"},"geometry":{"coordinates":[24.933380647850555,54.652133409127146],"type":"Point"}},{"type":"Feature","properties":{"name":"Ичери-шехер","address":"Азербайджан, г. Баку","film":"«Человек-амфибия»","film_standin":"Заграничный портовый город","marker-color":"#0008ff","marker-size":"medium"},"geometry":{"coordinates":[49.83475424285717,40.366190744235666],"type":"Point"}},{"type":"Feature","properties":{"name":"Делилиманская бухта","address":"Республика Крым, бухта Голубая","film":"«Человек-амфибия»","film_standin":"Побережье Аргентины","marker-color":"#0008ff","marker-size":"medium"},"geometry":{"coordinates":[34.90332621683845,44.81722286112648],"type":"Point"}},{"type":"Feature","properties":{"name":"Улица Яуниела, 25/27","address":"Латвия, г. Рига, ул. Яуниела, 25/27","film":"«Семнадцать мгновений весны»","film_standin":"Швейцария, г. Берн, улица Цветочная","marker-color":"#fa00c4","marker-size":"medium"},"geometry":{"coordinates":[24.105498813579004,56.9483900619644],"type":"Point"}},{"type":"Feature","properties":{"name":"Новокузнецкая улица, 13с1","address":"Россия, г. Москва, улица Новокузнецкая, 13с1","film":"«Иван Васильевич меняет профессию»","film_standin":"Дом Шурика","marker-color":"#58878d","marker-size":"medium"},"geometry":{"coordinates":[37.63167140504879,55.73743198104549],"type":"Point"}},{"type":"Feature","properties":{"name":"Алушта","address":"Республика Крым, г. Алушта","film":"«Кавказская пленница»","film_standin":"Кавказ","marker-color":"#00e1ff","marker-size":"medium"},"geometry":{"coordinates":[34.40950010079183,44.67708367642163],"type":"Point"}},{"type":"Feature","properties":{"name":"Медвежьегорск","address":"Россия, р. Карелия, г. Медвежьегорск","film":"«Любовь и голуби»","film_standin":"Иркутская область","marker-color":"#a6a168","marker-size":"medium"},"geometry":{"coordinates":[34.47334023678883,62.9150213749987],"type":"Point"}},{"type":"Feature","properties":{"name":"Пирятин","address":"Украина, Полтавская область, г. Пирятин","film":"«Королева бензоколонки»","film_standin":"Пирятин","marker-color":"#000000","marker-size":"medium"},"geometry":{"coordinates":[32.50114045325432,50.23599192970133],"type":"Point"}},{"type":"Feature","properties":{"name":"Одесса","address":"Украина, Северное Причерноморье, г. Одесса","film":"«Приключения Электроника»","film_standin":"Москва","marker-color":"#2f8340","marker-size":"medium"},"geometry":{"coordinates":[30.733119252217392,46.48421478261312],"type":"Point"}},{"type":"Feature","properties":{"name":"Ялта","address":"Республика Крым, г. Ялта","film":"«Неуловимые мстители»","film_standin":"Ялта","marker-color":"#95bfdf","marker-size":"medium"},"geometry":{"coordinates":[34.1586405054384,44.49695047562528],"type":"Point"}},{"type":"Feature","properties":{"name":"Вернигерод","address":"Германия, ГДР, г. Вернигерод","film":"«Тот самый Мюнхгаузен»","film_standin":"ФРГ, Боденвердер","marker-color":"#ac9cd3","marker-size":"medium"},"geometry":{"coordinates":[10.786260838547292,51.83440376530649],"type":"Point"}},{"type":"Feature","properties":{"name":"Тверь","address":"Россия, г. Тверь","film":"«Гардемарины, вперёд!»","film_standin":"Санкт-Петербург","marker-color":"#7f6b34","marker-size":"medium"},"geometry":{"coordinates":[35.920801201159804,56.858578243866305],"type":"Point"}},{"type":"Feature","properties":{"name":"Махачкала","address":"Россия, р. Дагестан, г. Махачкала","film":"«Белое солнце пустыни»","film_standin":"Дагестан; Педжент","marker-color":"#c598c8","marker-size":"medium"},"geometry":{"coordinates":[47.50397803604915,42.97098554218741],"type":"Point"}}]}